City_ID,City,Lat,Lng,Max Temp,Humidity,Cloudiness,Wind Speed,Country,Date
0,crane,31.3974,-102.3501,20.02,14,0,9.83,US,1739657481
1,bredasdorp,-34.5322,20.0403,18.49,87,17,1.67,ZA,1739657749
2,port-aux-francais,-49.35,70.2167,7.78,88,100,14.25,TF,1739657750
3,olonkinbyen,70.9221,-8.7187,-4.12,75,96,3.29,SJ,1739657751
4,anloga,5.7947,0.8973,27.83,83,56,4.65,GH,1739657752
5,adamstown,-25.066,-130.1015,25.92,80,30,8.02,PN,1739657753
6,lebu,-37.6167,-73.65,14.8,76,8,7.53,CL,1739657754
7,invercargill,-46.4,168.35,23.34,58,30,1.79,NZ,1739657756
8,viedma,-40.8135,-62.9967,32.34,14,100,5.79,AR,1739657754
9,den burg,53.0542,4.7972,1.99,75,100,3.09,NL,1739657758
10,waitangi,-43.9535,-176.5597,18.23,89,91,1.79,NZ,1739657759
11,oranjemund,-28.55,16.4333,17.23,92,48,8.03,NA,1739657760
12,college,64.8569,-147.8028,-17.18,75,75,0.0,US,1739657761
13,peebles,55.6519,-3.1888,2.21,96,99,2.24,GB,1739657762
14,poronaysk,49.2167,143.1167,-18.09,90,7,2.15,RU,1739657763
15,laojunmiao,39.8333,97.7333,-7.63,28,0,3.0,CN,1739657764
16,kapuskasing,49.4169,-82.4331,-13.95,72,75,5.14,CA,1739657643
17,grytviken,-54.2811,-36.5092,1.86,60,86,1.36,GS,1739657767
18,tasqala,51.1167,50.3167,-2.43,77,100,9.87,KZ,1739657769
19,burang,30.25,81.1667,-19.16,84,67,1.46,CN,1739657770
20,saudarkrokur,65.7461,-19.6394,-7.06,77,29,3.18,IS,1739657771
21,tiksi,71.6872,128.8694,-28.76,99,48,1.73,RU,1739657772
22,lompoc,34.6391,-120.4579,19.73,58,0,7.72,US,1739657773
23,taoudenni,22.6783,-3.9836,26.31,18,80,4.44,ML,1739657774
24,achinsk,56.2694,90.4993,-15.87,90,95,1.97,RU,1739657775
25,bethel,41.3712,-73.414,-1.66,85,100,0.89,US,1739657776
26,san patricio,28.017,-97.5169,17.97,66,100,3.28,US,1739657778
27,hobyo,5.3505,48.5268,24.43,74,92,5.36,SO,1739657779
28,edinburgh of the seven seas,-37.0676,-12.3116,19.56,96,90,4.51,SH,1739657780
29,wamba,8.9333,8.6,24.89,8,41,2.2,NG,1739657781
30,nova olinda do norte,-3.8881,-59.0942,22.64,99,100,1.25,BR,1739657782
31,sisimiut,66.9395,-53.6735,-3.57,65,67,5.21,GL,1739657783
32,emerald,-23.5333,148.1667,28.32,31,13,5.65,AU,1739657784
33,kaohsiung,22.6163,120.3133,20.04,79,16,5.06,TW,1739657785
34,saipan,15.1355,145.701,28.39,76,100,6.17,MP,1739657786
35,akureyri,65.6835,-18.0878,-7.04,86,20,2.57,IS,1739657788
36,muroto-misakicho,33.2833,134.15,11.89,74,99,2.66,JP,1739657789
37,qarazhal,48.0078,70.7903,-15.61,100,100,0.37,KZ,1739657790
38,badger,64.8,-147.5333,-18.33,75,100,0.0,US,1739657791
39,thies,14.8342,-17.1061,19.36,94,0,6.17,SN,1739657792
40,veraval,20.9,70.3667,22.13,57,0,4.72,IN,1739657793
41,albany,42.6001,-73.9662,-3.95,88,100,3.76,US,1739657616
42,nizhniy odes,63.6445,54.856,-18.3,95,100,3.14,RU,1739657795
43,khlung,12.4547,102.2214,23.0,95,99,0.48,TH,1739657796
44,taro,-8.3862,115.28,19.4,91,62,1.02,ID,1739657797
45,ternate,0.8,127.4,26.23,82,42,2.63,ID,1739657799
46,bilibino,68.0546,166.4372,-23.84,72,0,2.88,RU,1739657800
47,halifax,44.6453,-63.5724,-5.29,45,5,4.92,CA,1739657801
48,nikolayevsk-on-amure,53.1406,140.73,-18.4,93,100,2.61,RU,1739657802
49,kismayo,-0.3582,42.5454,24.98,82,35,6.88,SO,1739657803
50,hasaki,35.7333,140.8333,11.95,67,100,8.06,JP,1739657805
51,tamandare,-8.7597,-35.1047,26.49,75,6,3.71,BR,1739657806
52,novodvinsk,64.4165,40.8122,-25.14,100,100,1.18,RU,1739657807
53,ribeira grande,38.5167,-28.7,18.22,77,75,13.41,PT,1739657809
54,port mathurin,-19.6833,63.4167,27.19,78,39,5.37,MU,1739657810
55,shohimardon,39.9839,71.8028,-2.19,61,80,3.29,UZ,1739657811
56,huilong,31.8111,121.655,4.14,87,30,2.95,CN,1739657812
57,sturgis,41.7992,-85.4192,2.26,93,100,2.06,US,1739657813
58,salalah,17.0151,54.0924,21.05,60,0,1.03,OM,1739657814
59,qaqortoq,60.7167,-46.0333,2.65,49,69,21.59,GL,1739657815
60,longyearbyen,78.2186,15.6401,-9.09,79,20,5.66,SJ,1739657526
61,sferracavallo,42.726,12.0956,4.65,85,6,2.24,IT,1739657817
62,thrissur,10.5167,76.2167,22.16,97,13,1.31,IN,1739657819
63,petropavlovsk-kamchatsky,53.0452,158.6483,0.33,69,75,6.0,RU,1739657820
64,mitu,1.1983,-70.1733,27.15,72,100,1.32,CO,1739657821
65,howrah,22.5892,88.3103,21.0,78,0,3.09,IN,1739657822
66,sheregesh,52.9209,87.9869,-15.11,99,100,1.22,RU,1739657823
67,linqiong,30.4159,103.4609,7.72,83,99,1.9,CN,1739657824
68,masuguru,-11.3667,38.4167,24.46,85,86,1.46,TZ,1739657825
69,wailua homesteads,22.0669,-159.378,27.44,76,20,4.63,US,1739657826
70,qamdo,31.1667,97.2333,-4.28,52,100,0.83,CN,1739657827
71,brookings,44.3114,-96.7984,-12.0,71,20,8.23,US,1739657828
72,blackmans bay,-43.0167,147.3167,12.07,71,21,2.68,AU,1739657830
73,sao jose da coroa grande,-8.8978,-35.1478,26.65,75,4,4.22,BR,1739657645
74,godda,24.8333,87.2167,14.53,28,0,0.72,IN,1739657832
75,klyuchi,52.2667,79.1667,-17.62,100,92,2.08,RU,1739657833
76,ushuaia,-54.8,-68.3,5.81,87,75,11.32,AR,1739657834
77,stanley,54.868,-1.6985,2.01,97,75,2.57,GB,1739657835
78,malvan,16.0667,73.4667,24.2,42,2,2.34,IN,1739657836
79,puerto natales,-51.7236,-72.4875,10.25,76,75,8.75,CL,1739657837
80,jaisalmer,26.9147,70.9181,20.85,26,7,3.51,IN,1739657545
81,kudahuvadhoo,2.6708,72.8944,26.73,67,100,5.03,MV,1739657839
82,papatowai,-46.5619,169.4708,21.61,49,12,2.33,NZ,1739657840
83,lorengau,-2.0226,147.2712,28.55,71,100,1.64,PG,1739657842
84,port-vila,-17.7338,168.3219,28.78,84,75,4.12,VU,1739657843
85,nishon tumani,38.694,65.6751,0.14,100,100,3.09,UZ,1739657844
86,udachny,66.4167,112.4,-36.41,100,71,1.13,RU,1739657845
87,pacific grove,36.6177,-121.9166,17.16,68,0,2.06,US,1739657846
88,mana,5.6592,-53.7767,24.93,85,93,4.44,GF,1739657847
89,ilulissat,69.2167,-51.1,3.01,25,75,5.14,GL,1739657848
90,xinxiang,35.3089,113.8672,5.36,28,8,1.75,CN,1739657850
91,west island,-12.1568,96.8225,25.99,94,75,0.0,CC,1739657851
92,thunder bay,48.4001,-89.3168,-12.68,80,100,4.58,CA,1739657597
93,fale old settlement,-9.3852,-171.2468,28.12,74,100,5.33,TK,1739657853
94,carnarvon,-24.8667,113.6333,26.49,55,0,5.49,AU,1739657685
95,caleta de carquin,-11.0925,-77.6267,24.72,80,83,3.74,PE,1739657855
96,el fasher,13.6279,25.3494,22.28,17,87,3.85,SD,1739657857
97,tamanrasset,22.785,5.5228,11.95,10,0,1.54,DZ,1739657858
98,kerema,-7.9631,145.7785,25.45,82,100,1.97,PG,1739657859
99,new norfolk,-42.7826,147.0587,11.51,51,8,1.76,AU,1739657860
100,remire-montjoly,4.9167,-52.2667,25.02,94,75,2.06,GF,1739657861
101,bay harbor,30.1471,-85.6146,23.85,85,94,2.24,US,1739657862
102,wenshui,28.4506,106.5267,2.89,89,100,1.0,CN,1739657863
103,polyarnyye zori,67.3661,32.4981,-14.07,97,100,1.33,RU,1739657864
104,abbeville,50.1,1.8333,0.27,75,100,3.38,FR,1739657865
105,kyabe,9.4515,18.9449,27.61,11,83,3.84,TD,1739657866
106,ataq,14.5377,46.8319,16.56,53,18,4.84,YE,1739657867
107,plettenberg bay,-34.0527,23.3716,17.54,92,0,1.39,ZA,1739657868
108,maryborough,-25.5333,152.7,24.61,64,28,2.91,AU,1739657869
109,malindi,-3.2175,40.1191,25.71,83,79,4.65,KE,1739657871
110,ilave,-16.0833,-69.6667,9.29,80,100,3.31,PE,1739657872
111,mangrol,21.1167,70.1167,22.29,68,0,4.39,IN,1739657873
112,hami,42.8,93.45,-1.85,39,0,1.96,CN,1739657874
113,jamestown,42.097,-79.2353,1.12,98,100,4.63,US,1739657875
114,port elizabeth,-33.918,25.5701,19.06,98,4,1.6,ZA,1739657876
115,corner brook,48.9667,-57.9484,-6.11,92,100,8.23,CA,1739657707
116,belyy yar,53.6039,91.3903,-22.06,84,0,2.0,RU,1739657878
117,barra de santo antonio,-9.4047,-35.5072,26.57,75,10,4.63,BR,1739657880
118,mbandaka,0.0487,18.2603,23.4,83,29,1.45,CD,1739657881
119,thompson,55.7435,-97.8558,-23.91,64,75,2.06,CA,1739657882
120,slawno,54.3628,16.6789,-1.61,70,45,2.43,PL,1739657883
121,east london,-33.0153,27.9116,20.46,81,7,3.47,ZA,1739657884
122,an nuhud,12.7,28.4333,23.29,14,21,8.3,SD,1739657885
123,al kharijah,25.4514,30.5464,14.11,22,0,3.64,EG,1739657888
124,imbituba,-28.24,-48.6703,25.02,86,83,6.73,BR,1739657889
125,west sayville,40.7279,-73.0976,1.15,92,100,3.09,US,1739657890
126,shchastya,48.7396,39.2323,-6.42,81,83,4.43,UA,1739657891
127,haiku-pauwela,20.9219,-156.3051,28.01,71,40,8.94,US,1739657892
128,kosh-agach,50.0,88.6667,-27.9,99,100,1.3,RU,1739657893
129,nova sintra,14.8667,-24.7167,21.28,72,100,11.19,CV,1739657894
130,twon-brass,4.3151,6.2418,28.35,79,31,5.29,NG,1739657895
131,constantia,44.1833,28.65,-3.62,59,100,3.8,RO,1739657896
132,vilyuchinsk,52.9306,158.4028,1.15,94,99,2.65,RU,1739657898
133,sungai penuh,-2.0833,101.3833,17.86,96,99,1.19,ID,1739657899
134,newman,37.3138,-121.0208,15.03,60,99,2.68,US,1739657900
135,figuig (centre),32.1089,-1.2286,13.94,30,100,1.81,MA,1739657901
136,aasiaat,68.7098,-52.8699,-4.98,73,70,8.45,GL,1739657902
137,georgetown,5.4112,100.3354,26.96,78,20,1.03,MY,1739657604
138,edremit,39.5961,27.0244,6.86,100,40,1.54,TR,1739657904
139,saint-pierre,-21.3393,55.4781,25.82,73,51,2.57,RE,1739657905
140,mesquite,32.7668,-96.5992,22.43,59,0,3.6,US,1739657700
141,isafjordur,66.0755,-23.124,-6.32,88,85,2.66,IS,1739657907
142,zhezqazghan,47.7833,67.7667,-18.34,99,63,1.91,KZ,1739657908
143,nizhneangarsk,55.7833,109.55,-18.01,81,99,2.25,RU,1739657910
144,port alfred,-33.5906,26.891,18.99,96,36,4.1,ZA,1739657911
145,hamilton,39.1834,-84.5333,5.98,95,100,0.45,US,1739657912
146,hermanus,-34.4187,19.2345,17.67,88,0,3.88,ZA,1739657913
147,mineros,-17.1167,-63.2333,24.77,94,47,3.02,BO,1739657914
148,dunedin,-45.8742,170.5036,17.67,90,0,1.34,NZ,1739657916
149,nadym,65.5333,72.5167,-30.29,100,96,2.29,RU,1739657918
150,puerto ayora,-0.7393,-90.3518,26.97,92,64,1.34,EC,1739657919
151,pariaman,-0.619,100.12,26.03,85,98,2.01,ID,1739657921
152,port augusta,-32.5,137.7667,15.32,44,0,4.85,AU,1739657922
153,recife,-8.0539,-34.8811,28.02,78,40,6.69,BR,1739657771
154,san antonio de pale,-1.4014,5.6325,27.39,82,51,3.82,GQ,1739657924
155,murudeshwara,14.0943,74.4845,24.1,41,3,1.66,IN,1739657925
156,cuyo,10.8525,121.0086,27.73,74,38,2.58,PH,1739657926
157,ciudad lazaro cardenas,17.9583,-102.2,27.89,62,66,5.08,MX,1739657807
158,nicosia,35.1667,33.3667,7.83,87,75,2.06,CY,1739657928
159,fiambala,-27.6871,-67.6149,27.76,47,43,6.36,AR,1739657929
160,iqaluit,63.7506,-68.5145,-21.15,77,75,10.29,CA,1739657931
161,iskateley,67.6803,53.1512,-36.7,100,75,1.94,RU,1739657932
162,jijiga,9.35,42.8,19.26,56,19,2.32,ET,1739657836
163,lenino,45.2986,35.7771,-1.56,67,69,5.48,UA,1739657934
164,atafu village,-8.5421,-172.5159,28.62,67,100,5.45,TK,1739657935
165,hawaiian paradise park,19.5933,-154.9731,24.93,91,100,3.6,US,1739657936
166,petauke,-14.2426,31.3253,18.1,95,61,1.41,ZM,1739657937
167,snowflake,34.5134,-110.0785,9.62,25,7,7.37,US,1739657938
168,juiz de fora,-21.7642,-43.3503,22.25,83,4,1.69,BR,1739657817
169,oltinko'l,40.8011,72.1634,4.25,55,100,0.85,UZ,1739657941
170,porto novo,6.4965,2.6036,28.9,82,51,3.15,BJ,1739657898
171,yatou,37.15,122.3833,2.69,58,100,2.21,CN,1739657943
172,taksimo,56.3444,114.8794,-20.8,91,100,1.34,RU,1739657944
173,nema,57.5067,50.5011,-11.8,97,100,2.06,RU,1739657945
174,ryotsu-minato,38.0833,138.4333,6.1,88,100,3.89,JP,1739657946
175,uturoa,-16.7333,-151.4333,28.53,69,93,4.82,PF,1739657947
176,colonia,50.9333,6.95,1.06,69,0,2.57,DE,1739657672
177,itoman,26.1247,127.6694,20.22,100,75,4.12,JP,1739657950
178,cabo san lucas,22.8909,-109.9124,22.42,54,70,3.78,MX,1739657802
179,lihue,21.9789,-159.3672,27.77,65,20,4.63,US,1739657953
180,ixtapa,20.7,-105.2,25.57,69,40,6.69,MX,1739657954
181,aykhal,66.0,111.5,-31.42,100,81,1.4,RU,1739657955
182,badiyah,22.45,58.8,21.71,37,1,1.17,OM,1739657956
183,kulhudhuffushi,6.6221,73.07,26.86,70,65,2.0,MV,1739657958
184,taroa,8.7058,171.2275,26.68,80,100,3.65,MH,1739657959
185,kodiak,57.79,-152.4072,4.73,87,100,7.72,US,1739657960
186,vorgashor,67.5833,63.95,-32.5,100,56,1.85,RU,1739657961
187,mayna,54.1135,47.6231,-7.38,95,100,5.01,RU,1739657962
188,acarau,-2.8856,-40.12,26.49,82,90,5.36,BR,1739657963
189,saint-affrique,43.9558,2.8892,1.02,61,69,2.17,FR,1739657964
190,ceerigaabo,10.6162,47.368,14.51,31,89,1.26,SO,1739657718
191,namibe,-15.1961,12.1522,23.82,81,77,3.46,AO,1739657966
192,hithadhoo,-0.6,73.0833,27.46,66,100,5.29,MV,1739657967
193,benito juarez,19.385,-99.165,24.91,35,75,2.57,MX,1739657789
194,luderitz,-26.6481,15.1594,19.12,68,0,9.86,NA,1739657970
195,ornskoldsvik,63.2909,18.7153,-9.47,67,35,5.66,SE,1739657971
196,dudinka,69.4058,86.1778,-29.69,97,99,2.81,RU,1739657972
197,noosa heads,-26.3833,153.15,25.27,61,68,4.17,AU,1739657973
198,margate,51.3813,1.3862,2.61,82,100,0.45,GB,1739657974
199,quepos,9.4236,-84.1652,27.65,74,89,1.28,CR,1739657934
200,buala,-8.145,159.5921,28.74,75,100,3.83,SB,1739657976
201,yellowknife,62.456,-114.3525,-19.69,65,40,1.54,CA,1739657977
202,margaret river,-33.95,115.0667,16.58,62,0,2.11,AU,1739657978
203,peniche,39.3558,-9.3811,14.5,84,98,2.49,PT,1739657979
204,kalabo,-14.97,22.6814,21.22,85,99,1.56,ZM,1739657980
205,cubuk,40.2386,33.0322,3.7,65,75,0.51,TR,1739657982
206,riberalta,-10.9833,-66.1,32.11,58,20,2.57,BO,1739657803
207,palikir - national government center,6.9248,158.1611,28.47,76,75,5.14,FM,1739657984
208,ghat,24.9647,10.1728,16.27,21,0,0.84,LY,1739657985
209,rio grande,-32.035,-52.0986,25.05,82,100,8.79,BR,1739657952
210,balykshi,47.0667,51.8667,-4.0,93,100,5.0,KZ,1739657987
211,tofol,5.3248,163.0078,28.88,84,75,3.09,FM,1739657988
212,tsiombe,-25.3,45.4833,25.8,86,53,5.49,MG,1739657989
213,tazovsky,67.4667,78.7,-35.08,100,56,1.52,RU,1739657990
214,ketchikan,55.3422,-131.6461,3.99,51,100,2.76,US,1739657992
215,miasteczko slaskie,50.5026,18.9395,-5.32,73,37,1.27,PL,1739657993
216,novyy urengoy,66.0833,76.6333,-31.1,100,90,1.67,RU,1739657994
217,labuan,5.2767,115.2417,26.2,94,20,1.54,MY,1739657995
218,simanggang,1.2472,111.4528,25.01,94,99,0.0,MY,1739657996
219,utrik,11.2278,169.8474,25.85,67,100,2.18,MH,1739657997
220,hailey,43.5196,-114.3153,2.74,69,66,1.79,US,1739657998
221,laguna,38.421,-121.4238,15.69,54,0,1.54,US,1739657907
222,bodo,67.28,14.405,1.02,86,75,10.29,NO,1739658000
223,codrington,-38.2667,141.9667,14.79,43,71,6.57,AU,1739658001
224,talnakh,69.4865,88.3972,-25.7,99,100,2.86,RU,1739657829
225,yorkton,51.2167,-102.4677,-21.09,65,100,3.6,CA,1739657904
226,cockburn town,21.4612,-71.1419,24.98,78,40,9.26,TC,1739658005
227,torghay,49.6339,63.4981,-19.06,100,96,2.08,KZ,1739658006
228,myitkyina,25.3833,97.4,12.38,67,0,1.27,MM,1739658007
229,joshimath,30.5667,79.5667,0.02,37,27,4.49,IN,1739658008
230,tralee,52.2704,-9.7026,9.69,90,100,5.0,IE,1739658009
231,road town,18.4167,-64.6167,26.02,69,20,7.72,VG,1739657847
232,mogocha,53.7333,119.7667,-25.78,98,84,1.63,RU,1739658011
233,okhotsk,59.3833,143.3,-9.14,79,100,7.23,RU,1739658013
234,dryden,49.7833,-92.7503,-16.84,55,40,3.09,CA,1739657974
235,ust-nera,64.5667,143.2,-26.1,97,96,2.21,RU,1739658017
236,russellville,35.2784,-93.1338,9.99,94,100,1.54,US,1739657726
237,raduzhny,62.0961,77.475,-26.15,97,93,2.39,RU,1739657957
238,tura,25.5198,90.2201,14.27,31,1,1.65,IN,1739658020
239,xuanzhou,30.9525,118.7553,4.72,86,32,2.17,CN,1739658021
240,karagandy,49.8019,73.1021,-20.03,99,96,1.02,KZ,1739658022
241,carauari,-4.8828,-66.8958,23.65,93,100,0.79,BR,1739658023
242,alofi,-19.0595,-169.9187,25.94,100,75,1.54,NU,1739658024
243,argo,37.6333,22.7333,10.88,69,74,0.8,GR,1739658025
244,colac,-38.3333,143.5833,12.77,53,58,3.48,AU,1739658026
245,soavinandriana,-19.1667,46.7333,16.57,98,100,0.78,MG,1739658028
246,huarmey,-10.0681,-78.1522,24.91,79,59,3.82,PE,1739658029
247,kruisfontein,-34.0033,24.7314,16.76,96,5,1.09,ZA,1739658030
248,whitehorse,60.7161,-135.0538,-13.88,54,75,7.2,CA,1739658031
249,point pedro,9.8167,80.2333,24.3,68,35,4.0,LK,1739658032
250,vadso,70.0744,29.7487,-3.91,80,75,4.12,NO,1739658033
251,buka,40.8108,69.1986,4.3,85,100,0.7,UZ,1739657908
252,nadi,-17.8,177.4167,31.0,70,75,4.12,FJ,1739658035
253,avarua,-21.2078,-159.775,28.03,83,100,6.17,CK,1739658037
254,broken hill,-31.95,141.4333,12.87,39,0,8.69,AU,1739658038
255,kasongo-lunda,-6.4667,16.8167,22.91,95,98,0.71,CD,1739658039
256,amsterdam,52.374,4.8897,1.67,77,0,2.06,NL,1739657821
257,taltal,-25.4,-70.4833,21.7,76,40,3.72,CL,1739658020
258,altamont,42.2068,-121.7372,1.1,78,100,2.57,US,1739658042
259,ulladulla,-35.35,150.4667,13.93,50,11,4.93,AU,1739658043
260,huaicheng,23.9051,112.1931,17.03,72,100,0.84,CN,1739658044
261,babu,24.4167,111.5167,12.02,86,100,2.41,CN,1739657999
262,polyarnyy,69.1989,33.4478,-7.91,97,100,1.4,RU,1739658047
263,namtsy,62.7161,129.6658,-34.89,100,76,2.16,RU,1739658049
264,cintalapa de figueroa,16.7333,-93.7167,28.05,47,100,4.33,MX,1739658050
265,caleta olivia,-46.4393,-67.5281,17.31,50,58,8.25,AR,1739658051
266,st. john's,47.5649,-52.7093,-4.46,87,100,15.95,CA,1739657838
267,enewetak,11.3474,162.3373,26.62,72,27,4.86,MH,1739658053
268,korla,41.7597,86.1469,-3.94,63,22,1.14,CN,1739658054
269,salekhard,66.53,66.6019,-29.29,100,100,1.36,RU,1739658055
270,as sulayyil,20.4607,45.5779,18.9,53,45,6.93,SA,1739658057
271,peace river,56.2501,-117.286,-21.83,64,0,2.57,CA,1739658037
272,sorong,-0.8833,131.25,25.72,85,100,2.22,ID,1739658059
273,mccook,40.2019,-100.6257,-6.97,68,100,8.75,US,1739658060
274,kavieng,-2.5744,150.7967,28.59,73,100,3.78,PG,1739658061
275,beledweyne,4.7358,45.2036,23.97,62,100,6.96,SO,1739658062
276,chernyshevskiy,63.0128,112.4714,-34.82,100,100,0.36,RU,1739658063
277,cozumel,20.5083,-86.9458,29.04,70,75,4.12,MX,1739658064
278,happy valley-goose bay,53.3168,-60.3315,-3.83,93,75,5.66,CA,1739658065
279,arzgir,45.3728,44.2206,3.31,69,100,1.97,RU,1739658067
280,nemuro,43.3236,145.575,-3.75,70,36,1.02,JP,1739658068
281,katsuura,35.1333,140.3,13.01,70,96,8.51,JP,1739658070
282,kibondo,-3.5864,30.7203,15.97,95,99,1.39,TZ,1739657992
283,lembeni,-3.7833,37.6167,21.2,86,62,2.09,TZ,1739658072
284,mount pearl,47.5166,-52.7813,-4.92,89,100,15.95,CA,1739658073
285,thal,35.4791,72.2439,-4.08,83,100,1.96,PK,1739658074
286,saint-philippe,-21.3585,55.7679,27.4,86,98,2.47,RE,1739658076
287,floro,61.5996,5.0328,-2.02,43,0,4.12,NO,1739658077
288,kone,-21.0595,164.8658,27.03,81,100,1.71,NC,1739658078
289,kavaratti,10.5669,72.642,27.36,73,38,1.89,IN,1739658079
290,ca mau,9.1769,105.15,23.87,90,62,0.96,VN,1739658080
291,rice lake,45.5061,-91.7382,-3.18,76,100,5.14,US,1739658081
292,flying fish cove,-10.4217,105.6791,23.82,94,21,2.06,CX,1739658082
293,wuhai,39.6647,106.8122,-5.28,50,0,0.7,CN,1739658083
294,cabedelo,-6.9811,-34.8339,27.37,76,81,5.35,BR,1739658084
295,reyes,-14.3167,-67.3833,25.09,100,100,0.0,BO,1739658085
296,punta arenas,-53.15,-70.9167,12.06,54,0,13.38,CL,1739657910
297,vidyayevo,69.3191,32.8049,-8.07,92,100,0.25,RU,1739658079
298,bubaque,11.2833,-15.8333,23.4,72,37,8.26,GW,1739658089
299,bathsheba,13.2167,-59.5167,25.66,74,5,9.42,BB,1739658090
300,black point,-34.6187,137.8972,17.06,54,91,6.46,AU,1739658091
301,dhidhdhoo,6.8833,73.1,26.85,71,35,2.14,MV,1739658093
302,palmas,-10.2128,-48.3603,21.93,94,40,2.57,BR,1739657986
303,portland,45.5234,-122.6762,6.45,91,100,2.68,US,1739657864
304,katsuren-haebaru,26.3369,127.8719,20.22,95,75,4.12,JP,1739658096
305,faya-largeau,17.9257,19.1043,20.4,12,6,5.45,TD,1739658097
306,richards bay,-28.783,32.0377,22.76,91,100,1.82,ZA,1739658098
307,port lincoln,-34.7333,135.8667,17.05,53,47,5.67,AU,1739658099
308,lensk,60.7253,114.9278,-21.94,100,96,0.82,RU,1739658100
309,anadyr,64.75,177.4833,-27.72,76,0,2.0,RU,1739658101
310,horta,38.5333,-28.6333,17.8,86,75,14.31,PT,1739658102
311,callao,-12.0667,-77.15,24.16,83,40,6.17,PE,1739657895
312,liboro,13.8245,122.7295,24.26,90,7,1.61,PH,1739658105
313,sangkhla buri,15.1555,98.4536,16.02,62,10,0.79,TH,1739658106
314,tuzha,57.6062,47.936,-19.98,100,95,1.62,RU,1739658107
315,montagu,-40.7667,144.9667,13.34,52,62,5.11,AU,1739658108
316,carutapera,-1.195,-46.02,24.47,93,100,2.37,BR,1739658109
317,vanimo,-2.6741,141.3028,26.65,89,97,1.81,PG,1739658110
318,freetown,8.484,-13.2299,26.84,78,40,4.63,SL,1739658111
319,ola,59.5833,151.2833,-11.53,78,88,4.99,RU,1739658112
320,kirakira,-10.4544,161.9205,27.48,83,100,3.11,SB,1739658113
321,islaz,43.7333,24.75,0.63,97,100,2.88,RO,1739658114
322,tolanaro,-25.0319,46.9987,25.87,83,60,5.02,MG,1739658117
323,guerrero negro,27.9769,-114.0611,19.02,47,30,4.41,MX,1739658068
324,mhasvad,17.6333,74.7833,22.38,23,2,2.78,IN,1739658119
325,krasnokamensk,50.0979,118.0369,-18.35,92,95,2.98,RU,1739658120
326,kyongwon,42.8136,130.1528,-1.44,70,53,4.89,KP,1739658121
327,nar'yan-mar,67.6713,53.087,-36.57,100,81,2.03,RU,1739658122
328,kaplice,48.7385,14.4963,-3.46,90,54,0.8,CZ,1739658123
329,vilyuysk,63.7553,121.6247,-32.17,100,95,0.3,RU,1739658125
330,lerwick,60.1545,-1.1494,3.92,60,70,6.76,GB,1739658126
331,mumford,5.2618,-0.759,27.03,86,20,4.17,GH,1739658127
332,as sulaymaniyah,35.5611,45.4375,-2.76,100,0,2.06,IQ,1739658128
333,thohoyandou,-22.9456,30.485,19.46,98,99,1.84,ZA,1739658130
334,ontario,34.0633,-117.6509,20.92,37,75,5.66,US,1739658131
335,norrtalje,59.758,18.705,-5.55,66,97,3.79,SE,1739658132
336,kimbe,-5.5502,150.1429,26.95,83,100,1.4,PG,1739658133
337,praia da vitoria,38.7333,-27.0667,16.14,77,75,13.44,PT,1739658134
338,la passe,45.5549,-0.8967,6.46,69,86,4.19,FR,1739658136
339,kittila,67.6647,24.8936,-8.92,92,75,2.57,FI,1739658137
340,kabinda,-6.1333,24.4833,19.94,92,94,0.79,CD,1739658138
341,murashi,59.3999,48.9615,-22.71,100,98,0.79,RU,1739658139
342,novyy rogachik,48.6768,44.0608,-3.5,86,100,6.18,RU,1739658140
343,izazi,-7.2,35.7333,21.36,77,46,0.54,TZ,1739658141
344,canutama,-6.5339,-64.3831,24.42,90,82,1.62,BR,1739658143
345,urangan,-25.3,152.9,25.51,59,29,6.07,AU,1739658144
346,la ronge,55.1001,-105.2842,-21.86,59,75,7.2,CA,1739658145
347,turpan,42.9333,89.1667,-0.58,38,0,1.29,CN,1739658146
348,male,4.1748,73.5089,25.97,78,75,3.6,MV,1739658147
349,burao,9.5221,45.5336,20.36,62,49,2.08,SO,1739658148
350,bandarbeyla,9.4942,50.8122,22.91,74,28,3.14,SO,1739658149
351,panevezys,55.7333,24.35,-5.34,63,68,1.6,LT,1739658150
352,arteche,12.2645,125.4048,24.89,91,19,2.21,PH,1739658151
353,selfoss,63.9331,-20.9971,-2.53,74,68,5.06,IS,1739658152
354,glace bay,46.1969,-59.957,-6.69,74,40,12.86,CA,1739658153
355,valparaiso,-33.0393,-71.6273,22.13,45,0,7.2,CL,1739657979
356,tayshet,55.9342,98.0044,-25.73,100,89,0.91,RU,1739658155
357,aitape,-3.1374,142.3475,26.67,86,100,1.77,PG,1739658156
358,susuman,62.7833,148.1667,-23.64,97,79,1.36,RU,1739658158
359,bambanglipuro,-7.95,110.2833,24.93,89,100,1.36,ID,1739658098
360,mahbubabad,17.6167,80.0167,20.27,28,0,1.89,IN,1739658160
361,unye,11.4502,13.962,21.18,19,25,2.93,NG,1739658162
362,keflavik,64.0049,-22.5624,1.24,69,0,9.26,IS,1739657890
363,taiynsha,53.8478,69.7639,-15.23,95,100,3.29,KZ,1739658165
364,suva,-18.1416,178.4415,30.71,70,75,1.03,FJ,1739658166
365,tobelo,1.7284,128.0095,27.11,83,90,1.89,ID,1739658167
366,sao vicente,-23.9631,-46.3919,27.77,26,8,3.13,BR,1739658168
367,antofagasta,-23.65,-70.4,20.6,88,98,4.06,CL,1739657996
368,nuuk,64.1835,-51.7216,8.34,27,100,12.86,GL,1739658138
369,souillac,-20.5167,57.5167,26.21,89,40,1.54,MU,1739658171
370,alice springs,-23.7,133.8833,22.75,31,92,5.14,AU,1739658173
371,christchurch,-43.5333,172.6333,22.19,76,100,5.14,NZ,1739658123
372,balasore,21.4942,86.9317,17.73,78,0,3.19,IN,1739658176
373,komsomol'sk,49.0097,33.6455,-5.52,72,76,3.15,UA,1739658178
374,bafang,5.1563,10.1788,20.25,75,72,0.39,CM,1739658179
375,los fresnos,26.0717,-97.4764,29.03,67,0,10.8,US,1739658180
376,fortuna,40.5982,-124.1573,15.51,50,0,4.12,US,1739658181
377,bodaybo,57.8506,114.1933,-18.05,99,100,0.37,RU,1739658182
378,omis,43.4447,16.6886,6.21,75,53,3.49,HR,1739658183
379,dul'durga,50.6761,113.5931,-22.7,96,19,2.12,RU,1739658185
380,pisco,-13.7,-76.2167,26.03,73,0,9.26,PE,1739658186
381,noumea,-22.2763,166.4572,25.23,80,95,4.42,NC,1739658187
382,malango,-2.9627,119.9001,19.54,97,100,0.94,ID,1739658189
383,mount gambier,-37.8333,140.7667,14.31,46,53,3.89,AU,1739658190
384,hanzhong,33.0728,107.0303,5.14,38,41,0.84,CN,1739658191
385,chonchi,-42.6128,-73.8092,16.18,56,66,2.18,CL,1739658192
386,ancud,-41.8697,-73.8203,14.92,67,32,2.82,CL,1739658026
387,ongjin,37.9347,125.3619,2.42,92,96,2.56,KP,1739658194
388,weno,7.4515,151.8468,22.97,100,100,8.5,FM,1739658195
389,adrar,20.5022,-10.0711,25.06,10,62,5.72,MR,1739658197
390,rusape,-18.5278,32.1284,18.05,97,99,1.77,ZW,1739658198
391,zyryanskoye,56.8306,86.6258,-11.94,96,100,2.5,RU,1739658199
392,luganville,-15.5333,167.1667,27.74,81,97,0.9,VU,1739658200
393,camana,-16.6228,-72.7111,24.37,84,88,3.2,PE,1739658201
394,howard springs,-12.497,131.047,23.95,93,100,2.8,AU,1739658202
395,ocean acres,39.7435,-74.281,3.14,85,100,0.89,US,1739658203
396,fort bragg,35.139,-79.006,17.91,75,100,3.09,US,1739658204
397,port douglas,-16.4833,145.4667,26.85,79,89,2.32,AU,1739658205
398,whakatane,-37.9585,176.9854,17.96,75,100,2.46,NZ,1739658206
399,batabano,22.7164,-82.2881,25.59,68,66,6.3,CU,1739658208
400,bikenibeu village,1.3673,173.1241,28.98,79,20,8.23,KI,1739658209
401,palmer,42.1584,-72.3287,-3.6,77,100,2.06,US,1739658210
402,las lomitas,-24.7096,-60.593,35.39,35,100,3.31,AR,1739658211
403,bel ombre,-4.6167,55.4167,26.91,89,40,3.09,SC,1739658212
404,pesqueira,-8.3578,-36.6964,22.55,71,20,8.22,BR,1739658214
405,coquimbo,-29.9533,-71.3436,19.85,67,0,5.14,CL,1739658026
406,bonthe,7.5264,-12.505,24.97,77,45,2.09,SL,1739658216
407,brisas de zicatela,15.8369,-97.0419,31.29,62,100,5.14,MX,1739658217
408,sao joao da barra,-21.6403,-41.0511,27.05,88,0,7.35,BR,1739658219
409,siracusa,37.0881,15.2792,10.73,68,41,1.34,IT,1739658220
410,minas de marcona,-15.2119,-75.1103,21.59,74,94,5.62,PE,1739658221
411,bumba,2.1833,22.4667,23.07,82,60,0.6,CD,1739658222
412,schramberg,48.224,8.3858,-1.18,88,100,1.79,DE,1739658223
413,bobrovytsya,50.75,31.3833,-8.0,88,67,2.63,UA,1739658225
414,petite riviere,-20.1894,57.4453,25.4,93,91,0.82,MU,1739658226
415,nahiyat al fuhud,30.9697,46.7228,13.34,28,100,3.17,IQ,1739658228
416,callaway,30.153,-85.5699,23.3,84,94,3.13,US,1739658215
417,ad dilam,23.9915,47.1627,14.25,75,100,3.78,SA,1739658231
418,onega,63.9061,38.1404,-24.08,100,60,0.96,RU,1739658232
419,leer,53.2316,7.461,-1.14,88,100,2.31,DE,1739658233
420,saint-girons,42.9167,1.1667,6.55,66,56,3.28,FR,1739658234
421,santa cruz,-17.8,-63.1667,27.03,74,75,5.66,BO,1739658061
422,mustafabad,30.8922,73.4989,14.92,43,100,1.25,PK,1739658236
423,sitka,57.0531,-135.33,5.94,49,75,9.77,US,1739658237
424,miyaly,48.8844,53.7836,-7.31,89,14,5.42,KZ,1739658238
425,vila velha,-20.3297,-40.2925,27.97,69,20,7.2,BR,1739658222
426,saint-joseph,-21.3667,55.6167,25.21,86,73,1.49,RE,1739658241
427,san fernando de apure,7.8878,-67.4724,34.39,27,13,2.98,VE,1739658124
428,zaragoza,41.6561,-0.8773,11.68,70,0,3.09,ES,1739658039
429,san andres,12.5847,-81.7006,29.01,70,40,5.66,CO,1739658002
430,sinop,41.7711,34.8709,2.94,85,100,1.32,TR,1739658245
431,port shepstone,-30.7414,30.455,21.38,88,100,1.3,ZA,1739658247
432,acapulco de juarez,16.8634,-99.8901,28.9,74,100,6.17,MX,1739658248
433,sola,-13.8833,167.55,26.19,87,100,8.42,VU,1739658249
434,zhaotong,27.3167,103.7167,1.19,95,100,2.99,CN,1739658251
435,mejit,10.2753,170.8646,26.44,81,100,4.1,MH,1739658253
436,zonguldak,41.25,31.8333,5.05,96,100,0.3,TR,1739658254
437,charters towers,-20.1,146.2667,27.32,54,13,4.73,AU,1739658255
438,impfondo,1.6381,18.0667,27.12,57,57,1.3,CG,1739658256
439,rongelap,11.1635,166.8941,26.31,69,99,4.18,MH,1739658259
440,detroit lakes,46.8172,-95.8453,-13.28,66,0,9.77,US,1739658126
441,smara,26.7384,-11.6719,17.1,59,2,5.79,EH,1739658261
442,sao felix do xingu,-6.6447,-51.995,23.24,95,100,0.73,BR,1739658262
443,inarajan village,13.2736,144.7484,28.0,76,25,7.87,GU,1739658263
444,whangarei,-35.7317,174.3239,18.36,93,69,4.62,NZ,1739658264
445,mo i rana,66.3128,14.1428,-12.74,85,75,1.03,NO,1739658265
446,tari,-11.1105,14.3559,19.18,93,57,1.0,AO,1739658266
447,wewak,-3.5534,143.6268,26.83,83,97,2.09,PG,1739658267
448,vrangel',42.7297,133.0839,-0.62,79,11,2.93,RU,1739658268
449,alsunga,56.9819,21.5594,-4.5,72,57,2.7,LV,1739658270
450,mkushi,-13.6202,29.3939,18.08,95,84,1.15,ZM,1739658271
451,mpigi,0.225,32.3136,19.38,86,17,0.86,UG,1739658272
452,mil'kovo,55.6078,37.7956,-9.09,51,99,2.32,RU,1739658273
453,barah,13.7,30.3667,22.67,15,7,4.81,SD,1739658274
454,castelli,-25.9468,-60.6195,34.45,38,95,0.79,AR,1739658275
455,baharly,38.4362,57.4316,2.05,87,21,2.09,TM,1739658276
456,flin flon,54.7682,-101.865,-23.09,49,75,5.14,CA,1739658279
457,barki saria,24.1667,85.8833,16.52,29,0,0.81,IN,1739658280
458,lobujya,27.95,86.8167,-17.03,41,23,7.27,NP,1739658281
459,recani,31.2846,-4.2688,16.5,24,100,4.58,MA,1739658635
460,mandalgovi,45.7625,106.2708,-15.01,54,0,2.81,MN,1739658636
461,fomeque,4.488,-73.8975,17.84,96,93,1.02,CO,1739658637
462,lagunas,-5.2269,-75.6753,28.18,75,79,0.95,PE,1739658638
463,fonte boa,-2.4959,-66.2662,24.71,88,100,0.45,BR,1739658640
464,maracas,-13.4411,-40.4308,20.34,80,72,5.34,BR,1739658641
465,tinambac,13.8164,123.3261,25.03,91,8,1.2,PH,1739658642
466,launceston,-41.45,147.1667,11.8,58,1,5.66,AU,1739658643
467,mhamid,29.82,-5.72,16.07,46,100,1.82,MA,1739658644
468,san pedro pochutla,15.7333,-96.4667,30.95,52,100,2.99,MX,1739658645
469,san dionisio ocotepec,16.8,-96.4,22.36,45,100,1.59,MX,1739658646
470,socorro,31.6546,-106.3033,17.56,23,0,7.72,US,1739658650
471,east ballina,-28.8667,153.5833,23.97,86,84,5.52,AU,1739658651
472,ar ruways,24.1103,52.7306,17.79,80,64,4.86,AE,1739658652
473,lepsy,46.235,78.9456,-11.05,95,99,1.45,KZ,1739658653
474,quatre cocos,-20.2078,57.7625,26.16,82,93,1.05,MU,1739658654
475,grand falls-windsor,48.9332,-55.6649,-5.28,83,91,3.58,CA,1739658655
476,urucara,-2.5364,-57.76,22.19,100,100,0.21,BR,1739658656
477,dodge city,37.7528,-100.0171,-3.86,68,100,9.77,US,1739658658
478,beya,53.0533,90.9139,-16.49,93,92,1.67,RU,1739658659
479,oulainen,64.2667,24.8,-11.02,96,98,1.33,FI,1739658660
480,santana,-0.0583,-51.1817,27.1,89,100,1.03,BR,1739658661
481,fort mcmurray,56.7268,-111.381,-19.23,65,100,3.09,CA,1739658662
482,hilo,19.7297,-155.09,24.49,98,100,4.92,US,1739658663
483,linkou,45.3,130.2833,-11.8,95,98,1.31,CN,1739658664
484,ratnagiri,16.9833,73.3,24.0,31,3,2.13,IN,1739658666
485,corum,40.5,34.75,1.2,70,100,1.38,TR,1739658667
486,rajgarh,28.6333,75.3833,16.67,36,16,2.57,IN,1739658669
487,saint john,45.2727,-66.0677,-7.43,35,20,6.17,CA,1739658472
488,chingirlau,51.095,54.0814,-6.66,86,59,7.56,KZ,1739658671
489,kavala,40.9397,24.4019,11.03,84,65,1.98,GR,1739658672
490,makoua,0.0069,15.6333,24.83,71,49,0.62,CG,1739658673
491,polovinnoye,54.7914,65.9864,-17.68,96,87,3.52,RU,1739658674
492,banda aceh,5.5577,95.3222,25.44,81,83,1.44,ID,1739658675
493,yarmouth,41.7057,-70.2286,-1.69,58,100,2.57,US,1739658676
494,diamantino,-14.4086,-56.4461,23.44,91,59,0.61,BR,1739658678
495,al qubbah,32.7616,22.2424,8.7,66,10,4.4,LY,1739658680
496,sao miguel do araguaia,-13.275,-50.1628,24.82,84,90,1.17,BR,1739658682
497,kupang,-10.1667,123.5833,26.32,100,20,0.0,ID,1739658684
498,brak,27.5496,14.2714,13.75,32,0,2.34,LY,1739658685
499,sinabang,2.4803,96.3801,25.35,84,100,1.27,ID,1739658686
500,chibougamau,49.9168,-74.3659,-18.21,65,100,1.54,CA,1739658634
501,key west,24.5557,-81.7826,27.0,74,20,8.75,US,1739658521
502,ivanivka,46.7208,34.553,-4.89,77,39,2.63,UA,1739658689
503,bandar lampung,-5.4254,105.258,22.99,97,100,1.26,ID,1739658690
504,mao,39.8885,4.2658,10.31,81,0,2.57,ES,1739658691
505,qarqaraly,49.4058,75.4742,-8.93,97,100,0.4,KZ,1739658692
506,lata,40.1629,-8.3327,9.13,82,95,1.61,PT,1739658693
507,molalla,45.1473,-122.577,6.73,84,20,2.06,US,1739658695
508,scarperia,43.992,11.3538,2.61,69,5,3.07,IT,1739658696
509,oum hadjer,13.2954,19.6966,22.04,12,54,5.04,TD,1739658698
510,rawson,-43.3002,-65.1023,22.16,46,0,9.77,AR,1739658699
511,necochea,-38.5473,-58.7368,20.12,78,0,5.43,AR,1739658700
512,milan,45.4643,9.1895,5.01,83,0,1.03,IT,1739658683
513,beidao,34.5686,105.8933,0.93,46,73,0.8,CN,1739658703
514,campo gallo,-26.5833,-62.85,35.85,34,95,4.61,AR,1739658704
515,borujen,31.9652,51.2873,0.83,41,1,1.76,IR,1739658705
516,isla mujeres,21.2311,-86.731,28.38,77,94,5.98,MX,1739658706
517,afaahiti,-17.75,-149.2833,27.21,72,37,6.0,PF,1739658707
518,posto fiscal rolim de moura,-13.0833,-62.2667,23.82,95,25,1.24,BR,1739658708
519,ulanhot,46.0833,122.0833,-12.99,71,2,6.01,CN,1739658709
520,manta,-0.95,-80.7333,26.88,83,75,3.09,EC,1739658710
521,coxen hole,16.3244,-86.5366,28.6,70,20,8.75,HN,1739658443
522,tevriz,57.509,72.4042,-21.56,100,100,1.02,RU,1739658713
523,laranjeiras do sul,-25.4078,-52.4161,20.8,95,75,2.05,BR,1739658714
524,greymouth,-42.4667,171.2,22.83,51,7,2.45,NZ,1739658715
525,solwezi,-12.1688,26.3894,16.38,96,92,0.82,ZM,1739658716
526,bazzano,44.5022,11.0854,2.32,87,0,1.03,IT,1739658717
527,mananjary,-21.2167,48.3333,24.89,91,99,0.46,MG,1739658718
528,kerikeri,-35.2268,173.9474,18.85,91,87,5.37,NZ,1739658720
529,chui,-33.6971,-53.4616,23.29,81,99,5.88,UY,1739658721
530,khovd,48.0056,91.6419,-19.61,94,70,1.38,MN,1739658722
531,porlamar,10.958,-63.8491,24.99,81,95,10.1,VE,1739658724
532,mahina,-17.5065,-149.489,30.87,66,20,4.12,PF,1739658725
533,bakanas,44.8081,76.2772,-4.35,97,61,1.96,KZ,1739658726
534,carolina beach,34.0352,-77.8936,18.38,83,100,5.6,US,1739658727
535,sanctuary point,-35.1114,150.629,16.09,41,29,5.22,AU,1739658729
536,barabai,-2.5833,115.3833,23.53,95,100,0.66,ID,1739658730
537,anar darah,32.7587,61.654,10.31,70,99,2.23,AF,1739658731
538,ishinomaki,38.4167,141.3,4.43,64,100,4.45,JP,1739658732
539,oppdal,62.5943,9.6912,-16.54,47,8,3.49,NO,1739658733
540,catriel,-37.8791,-67.7956,32.15,6,23,7.21,AR,1739658734
541,mohammedia,33.7066,-7.3944,18.11,63,100,5.14,MA,1739658735
542,knik-fairview,61.5126,-149.6001,1.64,69,0,0.89,US,1739658736
543,yuzhno-kurilsk,44.0306,145.8556,-3.34,69,12,3.65,RU,1739658737
544,la mira tumbiscatio,18.6833,-102.2833,33.73,26,100,1.73,MX,1739658738
545,oriximina,-1.7656,-55.8661,22.99,99,100,1.76,BR,1739658739
546,francistown,-21.17,27.5079,20.25,91,100,6.75,BW,1739658742
547,el nido,11.1858,119.3956,24.52,94,7,2.31,PH,1739658743
548,vila franca do campo,37.7167,-25.4333,18.27,99,100,8.39,PT,1739658744
549,puerto baquerizo moreno,-0.9,-89.6,29.55,70,40,4.63,EC,1739658745
550,thanh hoa,19.8,105.7667,19.67,95,100,2.4,VN,1739658746
551,valley city,46.9233,-98.0032,-17.71,60,0,7.72,US,1739658747
552,ust-tsilma,65.441,52.1498,-33.29,100,71,1.54,RU,1739658750
553,dejen,10.1667,38.1333,15.41,55,81,1.63,ET,1739658751
554,katabu,-4.9333,122.5167,25.3,94,100,1.04,ID,1739658752
555,puerto leguizamo,-0.1934,-74.7819,26.97,76,100,1.51,CO,1739658753
556,san luis,-33.295,-66.3356,25.64,63,66,2.68,AR,1739658733
557,olyokminsk,60.3736,120.4264,-27.79,100,97,0.67,RU,1739658756
558,afif,23.9065,42.9172,15.11,87,29,4.13,SA,1739658757
559,saldanha,-33.0117,17.9442,18.72,88,0,10.93,ZA,1739658758
560,motygino,58.1831,94.7592,-33.52,100,99,0.87,RU,1739658759
561,karsun,54.1994,46.9827,-7.74,95,100,4.98,RU,1739658760
562,ati,13.2154,18.3353,21.53,11,52,4.43,TD,1739658577
563,raja,8.4596,25.678,27.26,35,78,0.99,SS,1739658763
564,port moresby,-9.4431,147.1797,23.68,88,20,3.6,PG,1739658723
565,kapa'a,22.0752,-159.319,28.18,75,20,4.63,US,1739658766
566,guarapari,-20.6667,-40.4975,25.69,83,0,6.17,BR,1739658767
